{
    "customers": [
        {
            "cust_id": "000000",
            "name": "CheChe Depot (Kubota Gardens)",
            "address": "9817 55th Ave S, Seattle, WA 98118",
            "latitude": 47.512934400000006,
            "longitude": -122.26626471067073
        },
        {
            "cust_id": "000001",
            "name": "CheChe Top Google Address",
            "address": "821 2nd Ave #402, Seattle, WA 98104",
            "latitude": 47.6040452,
            "longitude": -122.3349071
        },
        {
            "cust_id": "000002",
            "name": "Bill Gates",
            "address": "500 5th Ave N, Seattle, WA 98109",
            "latitude": 47.6232408,
            "longitude": -122.3462039
        },
        {
            "cust_id": "000003",
            "name": "Alissa Rothchild",
            "address": "3123 35th Ave S, Seattle, WA 98144",
            "latitude": 47.5762653,
            "longitude": -122.2890814911582
        },
        {
            "cust_id": "000004",
            "name": "Nick Kullman",
            "address": "520 2nd Ave W #406, Seattle, WA 98119",
            "latitude": 47.6240792,
            "longitude": -122.359162
        },
        {
            "cust_id": "000005",
            "name": "Seattle Childrens",
            "address": "4800 Sand Point Way NE, Seattle, WA 98105",
            "latitude": 47.66311535,
            "longitude": -122.2825320078534
        },
        {
            "cust_id": "000006",
            "name": "Random Madrona 1",
            "address": "3698 E Pine St Seattle, WA 98122",
            "latitude": 47.615282,
            "longitude": -122.286134
        },
        {
            "cust_id": "000007",
            "name": "Random Madrona 2 (Bottlehouse)",
            "address": "1416 34th Ave, Seattle, WA 98122",
            "latitude": 47.61348555,
            "longitude": -122.2890034137184
        },
        {
            "cust_id": "000008",
            "name": "Random Beacon Hill 1",
            "address": "2001 S Plum St, Seattle, WA 98144",
            "latitude": 47.585135,
            "longitude": -122.3064488
        },
        {
            "cust_id": "000009",
            "name": "Random Beacon Hill 2",
            "address": "2850 S Bayview St, Seattle, WA 98144",
            "latitude": 47.5810897292137,
            "longitude": -122.2957872557991
        },
        {
            "cust_id": "000010",
            "name": "Random Beacon Hill 3",
            "address": "2316 15th Ave S, Seattle, WA 98144",
            "latitude": 47.58271701010101,
            "longitude": -122.31327613131313
        },
        {
            "cust_id": "000011",
            "name": "Random Beacon Hill 4",
            "address": "1759 S Dawson St, Seattle, WA 98108",
            "latitude": 47.55551397183099,
            "longitude": -122.3077374084507
        },
        {
            "cust_id": "000012",
            "name": "Random Beacon Hill 5",
            "address": "4900 25th Ave S, Seattle, WA 98108",
            "latitude": 47.558426,
            "longitude": -122.300229
        }
    ]
}